client,time_usec,time_usec2,PST_time,month,hour,day_of_week,domain,page_transition,page_title
33md0GbyPONeFeGeZopZPQ==,1569741615492977,2019-09-29 07:20:15.492977+00:00,2019-09-29 00:20:15.492977-07:00,9,0,Sunday,wordpress,TYPED,DataWorks – A Encyclopedia
33md0GbyPONeFeGeZopZPQ==,1569741610429144,2019-09-29 07:20:10.429144+00:00,2019-09-29 00:20:10.429144-07:00,9,0,Sunday,newtab,TYPED,New Tab
33md0GbyPONeFeGeZopZPQ==,1569741378640221,2019-09-29 07:16:18.640221+00:00,2019-09-29 00:16:18.640221-07:00,9,0,Sunday,newtab,TYPED,New Tab
33md0GbyPONeFeGeZopZPQ==,1569739633560343,2019-09-29 06:47:13.560343+00:00,2019-09-28 23:47:13.560343-07:00,9,23,Saturday,wco,TYPED,Watch Cartoons Online Videos for Kids in HD for Free
33md0GbyPONeFeGeZopZPQ==,1569739629556031,2019-09-29 06:47:09.556031+00:00,2019-09-28 23:47:09.556031-07:00,9,23,Saturday,newtab,TYPED,New Tab
33md0GbyPONeFeGeZopZPQ==,1569739587688017,2019-09-29 06:46:27.688017+00:00,2019-09-28 23:46:27.688017-07:00,9,23,Saturday,google_search,GENERATED,demons eat humans in farms - Google Search
33md0GbyPONeFeGeZopZPQ==,1569739485952589,2019-09-29 06:44:45.952589+00:00,2019-09-28 23:44:45.952589-07:00,9,23,Saturday,wco,TYPED,Watch Cartoons Online Videos for Kids in HD for Free
33md0GbyPONeFeGeZopZPQ==,1569739440668616,2019-09-29 06:44:00.668616+00:00,2019-09-28 23:44:00.668616-07:00,9,23,Saturday,wco,TYPED,Watch Cartoons Online Videos for Kids in HD for Free
33md0GbyPONeFeGeZopZPQ==,1569739153593562,2019-09-29 06:39:13.593562+00:00,2019-09-28 23:39:13.593562-07:00,9,23,Saturday,google_search,GENERATED,frozen 2 - Google Search
33md0GbyPONeFeGeZopZPQ==,1569739148333742,2019-09-29 06:39:08.333742+00:00,2019-09-28 23:39:08.333742-07:00,9,23,Saturday,newtab,TYPED,New Tab
33md0GbyPONeFeGeZopZPQ==,1569738966581017,2019-09-29 06:36:06.581017+00:00,2019-09-28 23:36:06.581017-07:00,9,23,Saturday,fanfox,TYPED,Manga Fox - Read Manga Online for Free!
33md0GbyPONeFeGeZopZPQ==,1569738961890925,2019-09-29 06:36:01.890925+00:00,2019-09-28 23:36:01.890925-07:00,9,23,Saturday,newtab,TYPED,New Tab
33md0GbyPONeFeGeZopZPQ==,1569736643501454,2019-09-29 05:57:23.501454+00:00,2019-09-28 22:57:23.501454-07:00,9,22,Saturday,wordpress,AUTO_BOOKMARK,BlueWorks – An Encyclopedia
33md0GbyPONeFeGeZopZPQ==,1569736641055577,2019-09-29 05:57:21.055577+00:00,2019-09-28 22:57:21.055577-07:00,9,22,Saturday,newtab,TYPED,New Tab
33md0GbyPONeFeGeZopZPQ==,1569730808043598,2019-09-29 04:20:08.043598+00:00,2019-09-28 21:20:08.043598-07:00,9,21,Saturday,google_search,GENERATED,frozen 2 trailer - Google Search
33md0GbyPONeFeGeZopZPQ==,1569729626654574,2019-09-29 04:00:26.654574+00:00,2019-09-28 21:00:26.654574-07:00,9,21,Saturday,wordpress,FORM_SUBMIT,Search Results for “Comics ” – BlueWorks
33md0GbyPONeFeGeZopZPQ==,1569729596544616,2019-09-29 03:59:56.544616+00:00,2019-09-28 20:59:56.544616-07:00,9,20,Saturday,wordpress,FORM_SUBMIT,Search Results for “Comics ” – BlueWorks
33md0GbyPONeFeGeZopZPQ==,1569729461848161,2019-09-29 03:57:41.848161+00:00,2019-09-28 20:57:41.848161-07:00,9,20,Saturday,wordpress,TYPED,DataWorks – A Encyclopedia
33md0GbyPONeFeGeZopZPQ==,1569729456718570,2019-09-29 03:57:36.718570+00:00,2019-09-28 20:57:36.718570-07:00,9,20,Saturday,newtab,TYPED,New Tab
33md0GbyPONeFeGeZopZPQ==,1569729384874230,2019-09-29 03:56:24.874230+00:00,2019-09-28 20:56:24.874230-07:00,9,20,Saturday,newtab,TYPED,New Tab
33md0GbyPONeFeGeZopZPQ==,1569729373942988,2019-09-29 03:56:13.942988+00:00,2019-09-28 20:56:13.942988-07:00,9,20,Saturday,wordpress,AUTO_BOOKMARK,BlueWorks – An Encyclopedia
33md0GbyPONeFeGeZopZPQ==,1569729369665535,2019-09-29 03:56:09.665535+00:00,2019-09-28 20:56:09.665535-07:00,9,20,Saturday,newtab,TYPED,New Tab
33md0GbyPONeFeGeZopZPQ==,1569728890850213,2019-09-29 03:48:10.850213+00:00,2019-09-28 20:48:10.850213-07:00,9,20,Saturday,fanfox,TYPED,Manga Fox - Read Manga Online for Free!
33md0GbyPONeFeGeZopZPQ==,1569728886599783,2019-09-29 03:48:06.599783+00:00,2019-09-28 20:48:06.599783-07:00,9,20,Saturday,newtab,TYPED,New Tab
33md0GbyPONeFeGeZopZPQ==,1569728859341611,2019-09-29 03:47:39.341611+00:00,2019-09-28 20:47:39.341611-07:00,9,20,Saturday,wordpress,FORM_SUBMIT,Search Results for “Comics ” – BlueWorks
33md0GbyPONeFeGeZopZPQ==,1569728751067216,2019-09-29 03:45:51.067216+00:00,2019-09-28 20:45:51.067216-07:00,9,20,Saturday,wordpress,AUTO_BOOKMARK,BlueWorks – An Encyclopedia
33md0GbyPONeFeGeZopZPQ==,1569728749570906,2019-09-29 03:45:49.570906+00:00,2019-09-28 20:45:49.570906-07:00,9,20,Saturday,newtab,TYPED,New Tab
33md0GbyPONeFeGeZopZPQ==,1569728742683593,2019-09-29 03:45:42.683593+00:00,2019-09-28 20:45:42.683593-07:00,9,20,Saturday,wordpress,TYPED,MathWorks – Encyclopedia
33md0GbyPONeFeGeZopZPQ==,1569728725487486,2019-09-29 03:45:25.487486+00:00,2019-09-28 20:45:25.487486-07:00,9,20,Saturday,wordpress,TYPED,DataWorks – A Encyclopedia
33md0GbyPONeFeGeZopZPQ==,1569728717600733,2019-09-29 03:45:17.600733+00:00,2019-09-28 20:45:17.600733-07:00,9,20,Saturday,wordpress,TYPED,MathWorks – Encyclopedia
33md0GbyPONeFeGeZopZPQ==,1569728701896419,2019-09-29 03:45:01.896419+00:00,2019-09-28 20:45:01.896419-07:00,9,20,Saturday,wordpress,AUTO_BOOKMARK,BlueWorks – An Encyclopedia
33md0GbyPONeFeGeZopZPQ==,1569728699949018,2019-09-29 03:44:59.949018+00:00,2019-09-28 20:44:59.949018-07:00,9,20,Saturday,newtab,TYPED,New Tab
33md0GbyPONeFeGeZopZPQ==,1569728493209730,2019-09-29 03:41:33.209730+00:00,2019-09-28 20:41:33.209730-07:00,9,20,Saturday,wordpress,TYPED,BlueWorks – An Encyclopedia
33md0GbyPONeFeGeZopZPQ==,1569728395586891,2019-09-29 03:39:55.586891+00:00,2019-09-28 20:39:55.586891-07:00,9,20,Saturday,wordpress,RELOAD,Data Drop – BlueWorks
33md0GbyPONeFeGeZopZPQ==,1569727265472812,2019-09-29 03:21:05.472812+00:00,2019-09-28 20:21:05.472812-07:00,9,20,Saturday,wordpress,AUTO_BOOKMARK,BlueWorks – An Encyclopedia
33md0GbyPONeFeGeZopZPQ==,1569727262901541,2019-09-29 03:21:02.901541+00:00,2019-09-28 20:21:02.901541-07:00,9,20,Saturday,newtab,TYPED,New Tab
33md0GbyPONeFeGeZopZPQ==,1569725255969673,2019-09-29 02:47:35.969673+00:00,2019-09-28 19:47:35.969673-07:00,9,19,Saturday,google_search,GENERATED,add javascript to wordpress - Google Search
33md0GbyPONeFeGeZopZPQ==,1569725246566547,2019-09-29 02:47:26.566547+00:00,2019-09-28 19:47:26.566547-07:00,9,19,Saturday,newtab,TYPED,New Tab
33md0GbyPONeFeGeZopZPQ==,1569724691129309,2019-09-29 02:38:11.129309+00:00,2019-09-28 19:38:11.129309-07:00,9,19,Saturday,fanfox,TYPED,Manga Fox - Read Manga Online for Free!
33md0GbyPONeFeGeZopZPQ==,1569724687474334,2019-09-29 02:38:07.474334+00:00,2019-09-28 19:38:07.474334-07:00,9,19,Saturday,newtab,TYPED,New Tab
33md0GbyPONeFeGeZopZPQ==,1569724612036643,2019-09-29 02:36:52.036643+00:00,2019-09-28 19:36:52.036643-07:00,9,19,Saturday,wordpress,AUTO_BOOKMARK,BlueWorks – An Encyclopedia
33md0GbyPONeFeGeZopZPQ==,1569724601814364,2019-09-29 02:36:41.814364+00:00,2019-09-28 19:36:41.814364-07:00,9,19,Saturday,newtab,TYPED,New Tab
wJoApW4mitVee+tuwzxLGw==,1569724276184955,2019-09-29 02:31:16.184955+00:00,2019-09-28 19:31:16.184955-07:00,9,19,Saturday,newtab,TYPED,New Tab
wJoApW4mitVee+tuwzxLGw==,1569724162748719,2019-09-29 02:29:22.748719+00:00,2019-09-28 19:29:22.748719-07:00,9,19,Saturday,yorku,FORM_SUBMIT,Catalogue Search Results | York University Libraries
wJoApW4mitVee+tuwzxLGw==,1569724134892713,2019-09-29 02:28:54.892713+00:00,2019-09-28 19:28:54.892713-07:00,9,19,Saturday,github,TYPED,Page not found · GitHub Pages
wJoApW4mitVee+tuwzxLGw==,1569724130492794,2019-09-29 02:28:50.492794+00:00,2019-09-28 19:28:50.492794-07:00,9,19,Saturday,github,RELOAD,Page not found · GitHub Pages
wJoApW4mitVee+tuwzxLGw==,1569724000768775,2019-09-29 02:26:40.768775+00:00,2019-09-28 19:26:40.768775-07:00,9,19,Saturday,github,TYPED,Page not found · GitHub Pages
wJoApW4mitVee+tuwzxLGw==,1569723988505195,2019-09-29 02:26:28.505195+00:00,2019-09-28 19:26:28.505195-07:00,9,19,Saturday,newtab,TYPED,New Tab
wJoApW4mitVee+tuwzxLGw==,1569723812131553,2019-09-29 02:23:32.131553+00:00,2019-09-28 19:23:32.131553-07:00,9,19,Saturday,yorku,FORM_SUBMIT,Your Checkouts | York University Libraries
wJoApW4mitVee+tuwzxLGw==,1569723800177715,2019-09-29 02:23:20.177715+00:00,2019-09-28 19:23:20.177715-07:00,9,19,Saturday,google_search,GENERATED,york libarry - Google Search
wJoApW4mitVee+tuwzxLGw==,1569723793739734,2019-09-29 02:23:13.739734+00:00,2019-09-28 19:23:13.739734-07:00,9,19,Saturday,newtab,TYPED,New Tab
wJoApW4mitVee+tuwzxLGw==,1569723494886125,2019-09-29 02:18:14.886125+00:00,2019-09-28 19:18:14.886125-07:00,9,19,Saturday,github,TYPED,GitHub
wJoApW4mitVee+tuwzxLGw==,1569723460647096,2019-09-29 02:17:40.647096+00:00,2019-09-28 19:17:40.647096-07:00,9,19,Saturday,wordpress,TYPED,Podcasts & Sounds – BlueWorks
wJoApW4mitVee+tuwzxLGw==,1569723451344095,2019-09-29 02:17:31.344095+00:00,2019-09-28 19:17:31.344095-07:00,9,19,Saturday,wordpress,TYPED,Podcasts & Sounds – BlueWorks
wJoApW4mitVee+tuwzxLGw==,1569723361984092,2019-09-29 02:16:01.984092+00:00,2019-09-28 19:16:01.984092-07:00,9,19,Saturday,wordpress,TYPED,BlueWorks – An Encyclopedia
wJoApW4mitVee+tuwzxLGw==,1569723231565772,2019-09-29 02:13:51.565772+00:00,2019-09-28 19:13:51.565772-07:00,9,19,Saturday,newtab,TYPED,New Tab
wJoApW4mitVee+tuwzxLGw==,1569723209620200,2019-09-29 02:13:29.620200+00:00,2019-09-28 19:13:29.620200-07:00,9,19,Saturday,wordpress,RELOAD,York University Courses – BlueWorks
wJoApW4mitVee+tuwzxLGw==,1569723069608370,2019-09-29 02:11:09.608370+00:00,2019-09-28 19:11:09.608370-07:00,9,19,Saturday,wordpress,FORM_SUBMIT,Edit Page ‹ BlueWorks — WordPress
wJoApW4mitVee+tuwzxLGw==,1569722904793790,2019-09-29 02:08:24.793790+00:00,2019-09-28 19:08:24.793790-07:00,9,19,Saturday,wordpress,FORM_SUBMIT,Search Results for “classes” – BlueWorks
wJoApW4mitVee+tuwzxLGw==,1569722843703601,2019-09-29 02:07:23.703601+00:00,2019-09-28 19:07:23.703601-07:00,9,19,Saturday,wordpress,TYPED,Following ‹ Reader — WordPress
wJoApW4mitVee+tuwzxLGw==,1569722842098507,2019-09-29 02:07:22.098507+00:00,2019-09-28 19:07:22.098507-07:00,9,19,Saturday,wordpress,TYPED,WordPress
wJoApW4mitVee+tuwzxLGw==,1569722837053261,2019-09-29 02:07:17.053261+00:00,2019-09-28 19:07:17.053261-07:00,9,19,Saturday,newtab,TYPED,New Tab
wJoApW4mitVee+tuwzxLGw==,1569722783103250,2019-09-29 02:06:23.103250+00:00,2019-09-28 19:06:23.103250-07:00,9,19,Saturday,wordpress,FORM_SUBMIT,Menus ‹ BlueWorks — WordPress
wJoApW4mitVee+tuwzxLGw==,1569722702478112,2019-09-29 02:05:02.478112+00:00,2019-09-28 19:05:02.478112-07:00,9,19,Saturday,wordpress,AUTO_BOOKMARK,BlueWorks – An Encyclopedia
wJoApW4mitVee+tuwzxLGw==,1569722555438365,2019-09-29 02:02:35.438365+00:00,2019-09-28 19:02:35.438365-07:00,9,19,Saturday,google_search,FORM_SUBMIT,york news - Google Search
wJoApW4mitVee+tuwzxLGw==,1569722543418575,2019-09-29 02:02:23.418575+00:00,2019-09-28 19:02:23.418575-07:00,9,19,Saturday,google_search,GENERATED,yorkcourses - Google Search
wJoApW4mitVee+tuwzxLGw==,1569722434859583,2019-09-29 02:00:34.859583+00:00,2019-09-28 19:00:34.859583-07:00,9,19,Saturday,wordpress,TYPED,BlueWorks – An Encyclopedia
wJoApW4mitVee+tuwzxLGw==,1569722405607027,2019-09-29 02:00:05.607027+00:00,2019-09-28 19:00:05.607027-07:00,9,19,Saturday,wordpress,TYPED,BlueWorks – An Encyclopedia
wJoApW4mitVee+tuwzxLGw==,1569722391388672,2019-09-29 01:59:51.388672+00:00,2019-09-28 18:59:51.388672-07:00,9,18,Saturday,wordpress,TYPED,BlueWorks – An Encyclopedia
wJoApW4mitVee+tuwzxLGw==,1569722386324000,2019-09-29 01:59:46.324000+00:00,2019-09-28 18:59:46.324000-07:00,9,18,Saturday,wordpress,TYPED,BlueWorks – An Encyclopedia
wJoApW4mitVee+tuwzxLGw==,1569722374436450,2019-09-29 01:59:34.436450+00:00,2019-09-28 18:59:34.436450-07:00,9,18,Saturday,wordpress,FORM_SUBMIT,Edit Page ‹ BlueWorks — WordPress
wJoApW4mitVee+tuwzxLGw==,1569722343999394,2019-09-29 01:59:03.999394+00:00,2019-09-28 18:59:03.999394-07:00,9,18,Saturday,newtab,TYPED,New Tab
wJoApW4mitVee+tuwzxLGw==,1569722333191891,2019-09-29 01:58:53.191891+00:00,2019-09-28 18:58:53.191891-07:00,9,18,Saturday,newtab,TYPED,New Tab
wJoApW4mitVee+tuwzxLGw==,1569722322744717,2019-09-29 01:58:42.744717+00:00,2019-09-28 18:58:42.744717-07:00,9,18,Saturday,wordpress,AUTO_BOOKMARK,DataWorks – A Encyclopedia
wJoApW4mitVee+tuwzxLGw==,1569722320174068,2019-09-29 01:58:40.174068+00:00,2019-09-28 18:58:40.174068-07:00,9,18,Saturday,newtab,TYPED,New Tab
wJoApW4mitVee+tuwzxLGw==,1569722167716612,2019-09-29 01:56:07.716612+00:00,2019-09-28 18:56:07.716612-07:00,9,18,Saturday,wordpress,FORM_SUBMIT,opml” – BlueWorks
wJoApW4mitVee+tuwzxLGw==,1569722121641362,2019-09-29 01:55:21.641362+00:00,2019-09-28 18:55:21.641362-07:00,9,18,Saturday,wordpress,RELOAD,Links – BlueWorks
wJoApW4mitVee+tuwzxLGw==,1569722118035748,2019-09-29 01:55:18.035748+00:00,2019-09-28 18:55:18.035748-07:00,9,18,Saturday,wordpress,FORM_SUBMIT,Menus ‹ BlueWorks — WordPress
wJoApW4mitVee+tuwzxLGw==,1569721977082353,2019-09-29 01:52:57.082353+00:00,2019-09-28 18:52:57.082353-07:00,9,18,Saturday,wordpress,RELOAD,Links – BlueWorks
wJoApW4mitVee+tuwzxLGw==,1569721921910073,2019-09-29 01:52:01.910073+00:00,2019-09-28 18:52:01.910073-07:00,9,18,Saturday,wordpress,AUTO_BOOKMARK,BlueWorks – An Encyclopedia
wJoApW4mitVee+tuwzxLGw==,1569721919013477,2019-09-29 01:51:59.013477+00:00,2019-09-28 18:51:59.013477-07:00,9,18,Saturday,newtab,TYPED,New Tab
wJoApW4mitVee+tuwzxLGw==,1569721840120049,2019-09-29 01:50:40.120049+00:00,2019-09-28 18:50:40.120049-07:00,9,18,Saturday,wordpress,FORM_SUBMIT,Email Post Changes ‹ BlueWorks — WordPress
wJoApW4mitVee+tuwzxLGw==,1569721796238630,2019-09-29 01:49:56.238630+00:00,2019-09-28 18:49:56.238630-07:00,9,18,Saturday,wordpress,TYPED,Dashboard ‹ BlueWorks — WordPress
wJoApW4mitVee+tuwzxLGw==,1569721796013482,2019-09-29 01:49:56.013482+00:00,2019-09-28 18:49:56.013482-07:00,9,18,Saturday,wordpress,TYPED,Dashboard ‹ BlueWorks — WordPress
wJoApW4mitVee+tuwzxLGw==,1569721362713207,2019-09-29 01:42:42.713207+00:00,2019-09-28 18:42:42.713207-07:00,9,18,Saturday,wordpress,TYPED,Following ‹ Reader — WordPress
wJoApW4mitVee+tuwzxLGw==,1569721354231714,2019-09-29 01:42:34.231714+00:00,2019-09-28 18:42:34.231714-07:00,9,18,Saturday,wordpress,TYPED,WordPress
wJoApW4mitVee+tuwzxLGw==,1569721344137882,2019-09-29 01:42:24.137882+00:00,2019-09-28 18:42:24.137882-07:00,9,18,Saturday,newtab,AUTO_TOPLEVEL,New Tab
33md0GbyPONeFeGeZopZPQ==,1569720271793510,2019-09-29 01:24:31.793510+00:00,2019-09-28 18:24:31.793510-07:00,9,18,Saturday,wordpress,AUTO_BOOKMARK,DataWorks – A Encyclopedia
33md0GbyPONeFeGeZopZPQ==,1569719984964012,2019-09-29 01:19:44.964012+00:00,2019-09-28 18:19:44.964012-07:00,9,18,Saturday,newtab,TYPED,New Tab
33md0GbyPONeFeGeZopZPQ==,1569719500833033,2019-09-29 01:11:40.833033+00:00,2019-09-28 18:11:40.833033-07:00,9,18,Saturday,myaccount.google,TYPED,Google Account
33md0GbyPONeFeGeZopZPQ==,1569719480355336,2019-09-29 01:11:20.355336+00:00,2019-09-28 18:11:20.355336-07:00,9,18,Saturday,newtab,TYPED,New Tab
33md0GbyPONeFeGeZopZPQ==,1569719354545518,2019-09-29 01:09:14.545518+00:00,2019-09-28 18:09:14.545518-07:00,9,18,Saturday,newtab,TYPED,New Tab
33md0GbyPONeFeGeZopZPQ==,1569719272052239,2019-09-29 01:07:52.052239+00:00,2019-09-28 18:07:52.052239-07:00,9,18,Saturday,google_search,GENERATED,bras walmart canada - Google Search
33md0GbyPONeFeGeZopZPQ==,1569719248234645,2019-09-29 01:07:28.234645+00:00,2019-09-28 18:07:28.234645-07:00,9,18,Saturday,newtab,TYPED,New Tab
33md0GbyPONeFeGeZopZPQ==,1569719144428833,2019-09-29 01:05:44.428833+00:00,2019-09-28 18:05:44.428833-07:00,9,18,Saturday,drorbn,TYPED,Dror Bar-Natan
33md0GbyPONeFeGeZopZPQ==,1569719092311766,2019-09-29 01:04:52.311766+00:00,2019-09-28 18:04:52.311766-07:00,9,18,Saturday,newtab,TYPED,New Tab
33md0GbyPONeFeGeZopZPQ==,1569718991528803,2019-09-29 01:03:11.528803+00:00,2019-09-28 18:03:11.528803-07:00,9,18,Saturday,wordpress,AUTO_BOOKMARK,DataWorks – A Encyclopedia
33md0GbyPONeFeGeZopZPQ==,1569718988603818,2019-09-29 01:03:08.603818+00:00,2019-09-28 18:03:08.603818-07:00,9,18,Saturday,newtab,TYPED,New Tab
33md0GbyPONeFeGeZopZPQ==,1569718949063412,2019-09-29 01:02:29.063412+00:00,2019-09-28 18:02:29.063412-07:00,9,18,Saturday,newtab,TYPED,New Tab
33md0GbyPONeFeGeZopZPQ==,1569718868774907,2019-09-29 01:01:08.774907+00:00,2019-09-28 18:01:08.774907-07:00,9,18,Saturday,google_search,GENERATED,jai ramanathan - Google Search
33md0GbyPONeFeGeZopZPQ==,1569718852658598,2019-09-29 01:00:52.658598+00:00,2019-09-28 18:00:52.658598-07:00,9,18,Saturday,google_search,GENERATED,jai ramanathan - Google Search
33md0GbyPONeFeGeZopZPQ==,1569718825922207,2019-09-29 01:00:25.922207+00:00,2019-09-28 18:00:25.922207-07:00,9,18,Saturday,google_search,GENERATED,jai ramanathan - Google Search
33md0GbyPONeFeGeZopZPQ==,1569718812457895,2019-09-29 01:00:12.457895+00:00,2019-09-28 18:00:12.457895-07:00,9,18,Saturday,newtab,TYPED,New Tab
33md0GbyPONeFeGeZopZPQ==,1569697763564875,2019-09-28 19:09:23.564875+00:00,2019-09-28 12:09:23.564875-07:00,9,12,Saturday,wordpress,AUTO_BOOKMARK,DataWorks – A Encyclopedia
33md0GbyPONeFeGeZopZPQ==,1569697746588681,2019-09-28 19:09:06.588681+00:00,2019-09-28 12:09:06.588681-07:00,9,12,Saturday,wordpress,AUTO_BOOKMARK,DataWorks – A Encyclopedia
33md0GbyPONeFeGeZopZPQ==,1569697675878996,2019-09-28 19:07:55.878996+00:00,2019-09-28 12:07:55.878996-07:00,9,12,Saturday,newtab,TYPED,New Tab
33md0GbyPONeFeGeZopZPQ==,1569697590393193,2019-09-28 19:06:30.393193+00:00,2019-09-28 12:06:30.393193-07:00,9,12,Saturday,google_search,GENERATED,kaggle alternatives - Google Search
wJoApW4mitVee+tuwzxLGw==,1569697158689436,2019-09-28 18:59:18.689436+00:00,2019-09-28 11:59:18.689436-07:00,9,11,Saturday,yorku,FORM_SUBMIT,Passport York Login
wJoApW4mitVee+tuwzxLGw==,1569697133102092,2019-09-28 18:58:53.102092+00:00,2019-09-28 11:58:53.102092-07:00,9,11,Saturday,newtab,TYPED,New Tab
wJoApW4mitVee+tuwzxLGw==,1569697057301371,2019-09-28 18:57:37.301371+00:00,2019-09-28 11:57:37.301371-07:00,9,11,Saturday,google_search,GENERATED,wordpress app - Google Search
wJoApW4mitVee+tuwzxLGw==,1569697049575717,2019-09-28 18:57:29.575717+00:00,2019-09-28 11:57:29.575717-07:00,9,11,Saturday,newtab,AUTO_TOPLEVEL,New Tab
wJoApW4mitVee+tuwzxLGw==,1569692593394927,2019-09-28 17:43:13.394927+00:00,2019-09-28 10:43:13.394927-07:00,9,10,Saturday,newtab,AUTO_TOPLEVEL,New Tab
33md0GbyPONeFeGeZopZPQ==,1569690717306553,2019-09-28 17:11:57.306553+00:00,2019-09-28 10:11:57.306553-07:00,9,10,Saturday,docs.google,RELOAD,conf
33md0GbyPONeFeGeZopZPQ==,1569690611858548,2019-09-28 17:10:11.858548+00:00,2019-09-28 10:10:11.858548-07:00,9,10,Saturday,github,AUTO_BOOKMARK,1 documentation
33md0GbyPONeFeGeZopZPQ==,1569690609020770,2019-09-28 17:10:09.020770+00:00,2019-09-28 10:10:09.020770-07:00,9,10,Saturday,newtab,TYPED,New Tab
33md0GbyPONeFeGeZopZPQ==,1569690534583198,2019-09-28 17:08:54.583198+00:00,2019-09-28 10:08:54.583198-07:00,9,10,Saturday,siam,RELOAD,SIAM Journal on Computing (SICOMP)
33md0GbyPONeFeGeZopZPQ==,1569690477920982,2019-09-28 17:07:57.920982+00:00,2019-09-28 10:07:57.920982-07:00,9,10,Saturday,wordpress,AUTO_BOOKMARK,Protected Blog › Log in
33md0GbyPONeFeGeZopZPQ==,1569690474748278,2019-09-28 17:07:54.748278+00:00,2019-09-28 10:07:54.748278-07:00,9,10,Saturday,newtab,TYPED,New Tab
33md0GbyPONeFeGeZopZPQ==,1569690306261465,2019-09-28 17:05:06.261465+00:00,2019-09-28 10:05:06.261465-07:00,9,10,Saturday,wordpress,RELOAD,BlueWorks – An Encyclopedia
33md0GbyPONeFeGeZopZPQ==,1569690244366597,2019-09-28 17:04:04.366597+00:00,2019-09-28 10:04:04.366597-07:00,9,10,Saturday,google_search,GENERATED,big hearts - Google Search
33md0GbyPONeFeGeZopZPQ==,1569690234227298,2019-09-28 17:03:54.227298+00:00,2019-09-28 10:03:54.227298-07:00,9,10,Saturday,newtab,TYPED,New Tab
33md0GbyPONeFeGeZopZPQ==,1569690223007907,2019-09-28 17:03:43.007907+00:00,2019-09-28 10:03:43.007907-07:00,9,10,Saturday,wordpress,RELOAD,BlueWorks – An Encyclopedia
33md0GbyPONeFeGeZopZPQ==,1569690208151407,2019-09-28 17:03:28.151407+00:00,2019-09-28 10:03:28.151407-07:00,9,10,Saturday,wordpress,RELOAD,BlueWorks – An Encyclopedia
33md0GbyPONeFeGeZopZPQ==,1569690200919098,2019-09-28 17:03:20.919098+00:00,2019-09-28 10:03:20.919098-07:00,9,10,Saturday,wordpress,RELOAD,BlueWorks – An Encyclopedia
33md0GbyPONeFeGeZopZPQ==,1569690194695467,2019-09-28 17:03:14.695467+00:00,2019-09-28 10:03:14.695467-07:00,9,10,Saturday,wordpress,RELOAD,BlueWorks – An Encyclopedia
33md0GbyPONeFeGeZopZPQ==,1569690189598822,2019-09-28 17:03:09.598822+00:00,2019-09-28 10:03:09.598822-07:00,9,10,Saturday,wordpress,RELOAD,BlueWorks – An Encyclopedia
33md0GbyPONeFeGeZopZPQ==,1569690184953255,2019-09-28 17:03:04.953255+00:00,2019-09-28 10:03:04.953255-07:00,9,10,Saturday,wordpress,RELOAD,BlueWorks – An Encyclopedia
33md0GbyPONeFeGeZopZPQ==,1569690164082268,2019-09-28 17:02:44.082268+00:00,2019-09-28 10:02:44.082268-07:00,9,10,Saturday,wordpress,RELOAD,BlueWorks – An Encyclopedia
33md0GbyPONeFeGeZopZPQ==,1569637233012512,2019-09-28 02:20:33.012512+00:00,2019-09-27 19:20:33.012512-07:00,9,19,Friday,wordpress,RELOAD,Jai | My Official Blog
33md0GbyPONeFeGeZopZPQ==,1569636305384186,2019-09-28 02:05:05.384186+00:00,2019-09-27 19:05:05.384186-07:00,9,19,Friday,newtab,RELOAD,New Tab
33md0GbyPONeFeGeZopZPQ==,1569636296726781,2019-09-28 02:04:56.726781+00:00,2019-09-27 19:04:56.726781-07:00,9,19,Friday,siam,RELOAD,"Algorithms Based on *-Algebras, and Their Applications to Isomorphism of Polynomials with One Secret, Group Isomorphism, and Polynomial Identity Testing"
33md0GbyPONeFeGeZopZPQ==,1569636292635865,2019-09-28 02:04:52.635865+00:00,2019-09-27 19:04:52.635865-07:00,9,19,Friday,siam,RELOAD, 865 &ndash; 1145
33md0GbyPONeFeGeZopZPQ==,1569636287594287,2019-09-28 02:04:47.594287+00:00,2019-09-27 19:04:47.594287-07:00,9,19,Friday,siam,RELOAD,SIAM
33md0GbyPONeFeGeZopZPQ==,1569636281961403,2019-09-28 02:04:41.961403+00:00,2019-09-27 19:04:41.961403-07:00,9,19,Friday,siam,RELOAD,SIAM Journal on Computing (SICOMP)
33md0GbyPONeFeGeZopZPQ==,1569636275540952,2019-09-28 02:04:35.540952+00:00,2019-09-27 19:04:35.540952-07:00,9,19,Friday,siam,RELOAD,Journals | SIAM
33md0GbyPONeFeGeZopZPQ==,1569636260630774,2019-09-28 02:04:20.630774+00:00,2019-09-27 19:04:20.630774-07:00,9,19,Friday,siam,RELOAD,SIAM | Home
33md0GbyPONeFeGeZopZPQ==,1569636247778881,2019-09-28 02:04:07.778881+00:00,2019-09-27 19:04:07.778881-07:00,9,19,Friday,wordpress,RELOAD,BlueWorks – An Encyclopedia
33md0GbyPONeFeGeZopZPQ==,1569636245847787,2019-09-28 02:04:05.847787+00:00,2019-09-27 19:04:05.847787-07:00,9,19,Friday,wordpress,RELOAD,Links – BlueWorks
33md0GbyPONeFeGeZopZPQ==,1569635906741093,2019-09-28 01:58:26.741093+00:00,2019-09-27 18:58:26.741093-07:00,9,18,Friday,wordpress,RELOAD,BlueWorks – An Encyclopedia
33md0GbyPONeFeGeZopZPQ==,1569635889600605,2019-09-28 01:58:09.600605+00:00,2019-09-27 18:58:09.600605-07:00,9,18,Friday,newtab,RELOAD,New Tab
33md0GbyPONeFeGeZopZPQ==,1569635513716153,2019-09-28 01:51:53.716153+00:00,2019-09-27 18:51:53.716153-07:00,9,18,Friday,tqft,RELOAD,Scott Morrison - Talks
33md0GbyPONeFeGeZopZPQ==,1569634643137328,2019-09-28 01:37:23.137328+00:00,2019-09-27 18:37:23.137328-07:00,9,18,Friday,wordpress,RELOAD,C – BlueWorks
33md0GbyPONeFeGeZopZPQ==,1569634633821700,2019-09-28 01:37:13.821700+00:00,2019-09-27 18:37:13.821700-07:00,9,18,Friday,wordpress,RELOAD,People(Others) – BlueWorks
33md0GbyPONeFeGeZopZPQ==,1569634626619976,2019-09-28 01:37:06.619976+00:00,2019-09-27 18:37:06.619976-07:00,9,18,Friday,wordpress,RELOAD,BlueWorks – An Encyclopedia
33md0GbyPONeFeGeZopZPQ==,1569634618511100,2019-09-28 01:36:58.511100+00:00,2019-09-27 18:36:58.511100-07:00,9,18,Friday,newtab,RELOAD,New Tab
33md0GbyPONeFeGeZopZPQ==,1569634473719397,2019-09-28 01:34:33.719397+00:00,2019-09-27 18:34:33.719397-07:00,9,18,Friday,jeremykun,RELOAD,Main Content – Math ∩ Programming
33md0GbyPONeFeGeZopZPQ==,1569634471457275,2019-09-28 01:34:31.457275+00:00,2019-09-27 18:34:31.457275-07:00,9,18,Friday,jeremykun,RELOAD,Making Hybrid Images – Math ∩ Programming
33md0GbyPONeFeGeZopZPQ==,1569634455787418,2019-09-28 01:34:15.787418+00:00,2019-09-27 18:34:15.787418-07:00,9,18,Friday,jeremykun,RELOAD,The Two-Dimensional Fourier Transform and Digital Watermarking – Math ∩ Programming
33md0GbyPONeFeGeZopZPQ==,1569633792285586,2019-09-28 01:23:12.285586+00:00,2019-09-27 18:23:12.285586-07:00,9,18,Friday,newtab,RELOAD,New Tab
33md0GbyPONeFeGeZopZPQ==,1569633790767072,2019-09-28 01:23:10.767072+00:00,2019-09-27 18:23:10.767072-07:00,9,18,Friday,wordpress,AUTO_BOOKMARK,Protected Blog › Log in
33md0GbyPONeFeGeZopZPQ==,1569633788030552,2019-09-28 01:23:08.030552+00:00,2019-09-27 18:23:08.030552-07:00,9,18,Friday,newtab,TYPED,New Tab
33md0GbyPONeFeGeZopZPQ==,1569632835047613,2019-09-28 01:07:15.047613+00:00,2019-09-27 18:07:15.047613-07:00,9,18,Friday,fanfox,TYPED,Manga Fox - Read Manga Online for Free!
33md0GbyPONeFeGeZopZPQ==,1569632830782871,2019-09-28 01:07:10.782871+00:00,2019-09-27 18:07:10.782871-07:00,9,18,Friday,newtab,TYPED,New Tab
33md0GbyPONeFeGeZopZPQ==,1569632816977281,2019-09-28 01:06:56.977281+00:00,2019-09-27 18:06:56.977281-07:00,9,18,Friday,drorbn,AUTO_BOOKMARK,Drorbn
33md0GbyPONeFeGeZopZPQ==,1569632812776147,2019-09-28 01:06:52.776147+00:00,2019-09-27 18:06:52.776147-07:00,9,18,Friday,newtab,TYPED,New Tab
33md0GbyPONeFeGeZopZPQ==,1569632749474896,2019-09-28 01:05:49.474896+00:00,2019-09-27 18:05:49.474896-07:00,9,18,Friday,wordpress,AUTO_BOOKMARK,BlueWorks – An Encyclopedia
33md0GbyPONeFeGeZopZPQ==,1569632741773465,2019-09-28 01:05:41.773465+00:00,2019-09-27 18:05:41.773465-07:00,9,18,Friday,newtab,TYPED,New Tab
33md0GbyPONeFeGeZopZPQ==,1569632645581467,2019-09-28 01:04:05.581467+00:00,2019-09-27 18:04:05.581467-07:00,9,18,Friday,wordpress,AUTO_BOOKMARK,BlueWorks – An Encyclopedia
33md0GbyPONeFeGeZopZPQ==,1569632638342732,2019-09-28 01:03:58.342732+00:00,2019-09-27 18:03:58.342732-07:00,9,18,Friday,newtab,TYPED,New Tab
33md0GbyPONeFeGeZopZPQ==,1569632591063225,2019-09-28 01:03:11.063225+00:00,2019-09-27 18:03:11.063225-07:00,9,18,Friday,github,RELOAD,Managing deploy keys | GitHub Developer Guide
wJoApW4mitVee+tuwzxLGw==,1569631412456308,2019-09-28 00:43:32.456308+00:00,2019-09-27 17:43:32.456308-07:00,9,17,Friday,newtab,TYPED,New Tab
wJoApW4mitVee+tuwzxLGw==,1569631354921385,2019-09-28 00:42:34.921385+00:00,2019-09-27 17:42:34.921385-07:00,9,17,Friday,newtab,TYPED,New Tab
wJoApW4mitVee+tuwzxLGw==,1569631320112315,2019-09-28 00:42:00.112315+00:00,2019-09-27 17:42:00.112315-07:00,9,17,Friday,wordpress,TYPED,BlueWorks – An Encyclopedia
wJoApW4mitVee+tuwzxLGw==,1569631307658142,2019-09-28 00:41:47.658142+00:00,2019-09-27 17:41:47.658142-07:00,9,17,Friday,newtab,TYPED,New Tab
wJoApW4mitVee+tuwzxLGw==,1569631278534170,2019-09-28 00:41:18.534170+00:00,2019-09-27 17:41:18.534170-07:00,9,17,Friday,github,TYPED,GitHub
wJoApW4mitVee+tuwzxLGw==,1569631268862119,2019-09-28 00:41:08.862119+00:00,2019-09-27 17:41:08.862119-07:00,9,17,Friday,newtab,TYPED,New Tab
wJoApW4mitVee+tuwzxLGw==,1569630925139222,2019-09-28 00:35:25.139222+00:00,2019-09-27 17:35:25.139222-07:00,9,17,Friday,photos.google,AUTO_BOOKMARK,Photos - Google Photos
wJoApW4mitVee+tuwzxLGw==,1569630918353261,2019-09-28 00:35:18.353261+00:00,2019-09-27 17:35:18.353261-07:00,9,17,Friday,newtab,TYPED,New Tab
wJoApW4mitVee+tuwzxLGw==,1569630845870758,2019-09-28 00:34:05.870758+00:00,2019-09-27 17:34:05.870758-07:00,9,17,Friday,wordpress,TYPED,BlueWorks – An Encyclopedia
wJoApW4mitVee+tuwzxLGw==,1569630840464221,2019-09-28 00:34:00.464221+00:00,2019-09-27 17:34:00.464221-07:00,9,17,Friday,wordpress,TYPED,BlueWorks – An Encyclopedia
wJoApW4mitVee+tuwzxLGw==,1569630827422683,2019-09-28 00:33:47.422683+00:00,2019-09-27 17:33:47.422683-07:00,9,17,Friday,wordpress,TYPED,BlueWorks – An Encyclopedia
wJoApW4mitVee+tuwzxLGw==,1569630808874792,2019-09-28 00:33:28.874792+00:00,2019-09-27 17:33:28.874792-07:00,9,17,Friday,newtab,TYPED,New Tab
wJoApW4mitVee+tuwzxLGw==,1569630714160423,2019-09-28 00:31:54.160423+00:00,2019-09-27 17:31:54.160423-07:00,9,17,Friday,github,TYPED,GitHub
wJoApW4mitVee+tuwzxLGw==,1569630696741874,2019-09-28 00:31:36.741874+00:00,2019-09-27 17:31:36.741874-07:00,9,17,Friday,newtab,AUTO_TOPLEVEL,New Tab
wJoApW4mitVee+tuwzxLGw==,1569627134710889,2019-09-27 23:32:14.710889+00:00,2019-09-27 16:32:14.710889-07:00,9,16,Friday,wordpress,RELOAD,PDF’s – BlueWorks
wJoApW4mitVee+tuwzxLGw==,1569626987797295,2019-09-27 23:29:47.797295+00:00,2019-09-27 16:29:47.797295-07:00,9,16,Friday,wordpress,FORM_SUBMIT,Search Results for “latex” – BlueWorks
wJoApW4mitVee+tuwzxLGw==,1569626972821785,2019-09-27 23:29:32.821785+00:00,2019-09-27 16:29:32.821785-07:00,9,16,Friday,wordpress,RELOAD,LaTeX and MATLAB – BlueWorks
wJoApW4mitVee+tuwzxLGw==,1569626910909022,2019-09-27 23:28:30.909022+00:00,2019-09-27 16:28:30.909022-07:00,9,16,Friday,wordpress,AUTO_BOOKMARK,BlueWorks – An Encyclopedia
wJoApW4mitVee+tuwzxLGw==,1569626887557643,2019-09-27 23:28:07.557643+00:00,2019-09-27 16:28:07.557643-07:00,9,16,Friday,altervista,AUTO_BOOKMARK,DataWorks – A Collection of Photos
wJoApW4mitVee+tuwzxLGw==,1569626881909521,2019-09-27 23:28:01.909521+00:00,2019-09-27 16:28:01.909521-07:00,9,16,Friday,newtab,TYPED,New Tab
wJoApW4mitVee+tuwzxLGw==,1569626879673102,2019-09-27 23:27:59.673102+00:00,2019-09-27 16:27:59.673102-07:00,9,16,Friday,wordpress,AUTO_BOOKMARK,DataWorks – A Encyclopedia
wJoApW4mitVee+tuwzxLGw==,1569626704238182,2019-09-27 23:25:04.238182+00:00,2019-09-27 16:25:04.238182-07:00,9,16,Friday,newtab,TYPED,New Tab
wJoApW4mitVee+tuwzxLGw==,1569626566569938,2019-09-27 23:22:46.569938+00:00,2019-09-27 16:22:46.569938-07:00,9,16,Friday,newtab,TYPED,New Tab
wJoApW4mitVee+tuwzxLGw==,1569626475514955,2019-09-27 23:21:15.514955+00:00,2019-09-27 16:21:15.514955-07:00,9,16,Friday,newtab,TYPED,New Tab
wJoApW4mitVee+tuwzxLGw==,1569626354356717,2019-09-27 23:19:14.356717+00:00,2019-09-27 16:19:14.356717-07:00,9,16,Friday,wordpress,RELOAD,PDF’s – BlueWorks
wJoApW4mitVee+tuwzxLGw==,1569626293191153,2019-09-27 23:18:13.191153+00:00,2019-09-27 16:18:13.191153-07:00,9,16,Friday,wordpress,FORM_SUBMIT,PDF’s – BlueWorks
wJoApW4mitVee+tuwzxLGw==,1569626272353358,2019-09-27 23:17:52.353358+00:00,2019-09-27 16:17:52.353358-07:00,9,16,Friday,wordpress,RELOAD,Books – BlueWorks
wJoApW4mitVee+tuwzxLGw==,1569626151785016,2019-09-27 23:15:51.785016+00:00,2019-09-27 16:15:51.785016-07:00,9,16,Friday,wordpress,RELOAD,Books – BlueWorks
wJoApW4mitVee+tuwzxLGw==,1569626140737226,2019-09-27 23:15:40.737226+00:00,2019-09-27 16:15:40.737226-07:00,9,16,Friday,wordpress,RELOAD,Books – BlueWorks
wJoApW4mitVee+tuwzxLGw==,1569626101657684,2019-09-27 23:15:01.657684+00:00,2019-09-27 16:15:01.657684-07:00,9,16,Friday,wordpress,RELOAD,BlueWorks
wJoApW4mitVee+tuwzxLGw==,1569625968888076,2019-09-27 23:12:48.888076+00:00,2019-09-27 16:12:48.888076-07:00,9,16,Friday,wordpress,TYPED,BlueWorks
wJoApW4mitVee+tuwzxLGw==,1569625729745715,2019-09-27 23:08:49.745715+00:00,2019-09-27 16:08:49.745715-07:00,9,16,Friday,newtab,TYPED,New Tab
wJoApW4mitVee+tuwzxLGw==,1569625686519801,2019-09-27 23:08:06.519801+00:00,2019-09-27 16:08:06.519801-07:00,9,16,Friday,wordpress,TYPED,BlueWorks
wJoApW4mitVee+tuwzxLGw==,1569625667620016,2019-09-27 23:07:47.620016+00:00,2019-09-27 16:07:47.620016-07:00,9,16,Friday,newtab,TYPED,New Tab
wJoApW4mitVee+tuwzxLGw==,1569625365837550,2019-09-27 23:02:45.837550+00:00,2019-09-27 16:02:45.837550-07:00,9,16,Friday,newtab,TYPED,New Tab
wJoApW4mitVee+tuwzxLGw==,1569625328661656,2019-09-27 23:02:08.661656+00:00,2019-09-27 16:02:08.661656-07:00,9,16,Friday,wordpress,AUTO_BOOKMARK,DataWorks – A Encyclopedia
wJoApW4mitVee+tuwzxLGw==,1569625326569506,2019-09-27 23:02:06.569506+00:00,2019-09-27 16:02:06.569506-07:00,9,16,Friday,newtab,TYPED,New Tab
wJoApW4mitVee+tuwzxLGw==,1569625225069023,2019-09-27 23:00:25.069023+00:00,2019-09-27 16:00:25.069023-07:00,9,16,Friday,newtab,AUTO_TOPLEVEL,New Tab
33md0GbyPONeFeGeZopZPQ==,1569565773308054,2019-09-27 06:29:33.308054+00:00,2019-09-26 23:29:33.308054-07:00,9,23,Thursday,source.cloud.google,RELOAD,Connect external repository
33md0GbyPONeFeGeZopZPQ==,1569565685332926,2019-09-27 06:28:05.332926+00:00,2019-09-26 23:28:05.332926-07:00,9,23,Thursday,cloud.google,RELOAD,Pricing and quotas  |  Cloud Source Repositories Documentation  |  Google Cloud
33md0GbyPONeFeGeZopZPQ==,1569565669160068,2019-09-27 06:27:49.160068+00:00,2019-09-26 23:27:49.160068-07:00,9,23,Thursday,source.cloud.google,RELOAD,Add repository
33md0GbyPONeFeGeZopZPQ==,1569565654485240,2019-09-27 06:27:34.485240+00:00,2019-09-26 23:27:34.485240-07:00,9,23,Thursday,source.cloud.google,RELOAD,Source
33md0GbyPONeFeGeZopZPQ==,1569565640847745,2019-09-27 06:27:20.847745+00:00,2019-09-26 23:27:20.847745-07:00,9,23,Thursday,cloud.google,RELOAD,Creating an empty repository  |  Cloud Source Repositories Documentation  |  Google Cloud
33md0GbyPONeFeGeZopZPQ==,1569565580447517,2019-09-27 06:26:20.447517+00:00,2019-09-26 23:26:20.447517-07:00,9,23,Thursday,cloud.google,RELOAD,Cloud Source Repositories  |  Google Cloud
33md0GbyPONeFeGeZopZPQ==,1569565574537733,2019-09-27 06:26:14.537733+00:00,2019-09-26 23:26:14.537733-07:00,9,23,Thursday,google_search,RELOAD,storage - Google Search
33md0GbyPONeFeGeZopZPQ==,1569565523234995,2019-09-27 06:25:23.234995+00:00,2019-09-26 23:25:23.234995-07:00,9,23,Thursday,amazon,RELOAD,AWS CodeCommit Pricing | Amazon Web Services
33md0GbyPONeFeGeZopZPQ==,1569565517206860,2019-09-27 06:25:17.206860+00:00,2019-09-26 23:25:17.206860-07:00,9,23,Thursday,google_search,RELOAD,free amazon code storage - Google Search
33md0GbyPONeFeGeZopZPQ==,1569565502493662,2019-09-27 06:25:02.493662+00:00,2019-09-26 23:25:02.493662-07:00,9,23,Thursday,appspot,RELOAD,QR Codes  |  Infographics  |  Google Developers
33md0GbyPONeFeGeZopZPQ==,1569565451376294,2019-09-27 06:24:11.376294+00:00,2019-09-26 23:24:11.376294-07:00,9,23,Thursday,github,RELOAD,Chart Server Parameters · zxing
33md0GbyPONeFeGeZopZPQ==,1569565388824562,2019-09-27 06:23:08.824562+00:00,2019-09-26 23:23:08.824562-07:00,9,23,Thursday,google_search,GENERATED,references on algorithms - Google Search
33md0GbyPONeFeGeZopZPQ==,1569565376425295,2019-09-27 06:22:56.425295+00:00,2019-09-26 23:22:56.425295-07:00,9,23,Thursday,google_search,GENERATED,references on algorithms - Google Search
33md0GbyPONeFeGeZopZPQ==,1569565262480685,2019-09-27 06:21:02.480685+00:00,2019-09-26 23:21:02.480685-07:00,9,23,Thursday,google_search,GENERATED,libgen network - Google Search
33md0GbyPONeFeGeZopZPQ==,1569565165024853,2019-09-27 06:19:25.024853+00:00,2019-09-26 23:19:25.024853-07:00,9,23,Thursday,google_search,GENERATED,libgen network - Google Search
33md0GbyPONeFeGeZopZPQ==,1569565138255493,2019-09-27 06:18:58.255493+00:00,2019-09-26 23:18:58.255493-07:00,9,23,Thursday,google_search,GENERATED,libgen network - Google Search
33md0GbyPONeFeGeZopZPQ==,1569565013463692,2019-09-27 06:16:53.463692+00:00,2019-09-26 23:16:53.463692-07:00,9,23,Thursday,linux,RELOAD,Download Linux | Linux
33md0GbyPONeFeGeZopZPQ==,1569565009993680,2019-09-27 06:16:49.993680+00:00,2019-09-26 23:16:49.993680-07:00,9,23,Thursday,google_search,RELOAD,linux download - Google Search
33md0GbyPONeFeGeZopZPQ==,1569564984846336,2019-09-27 06:16:24.846336+00:00,2019-09-26 23:16:24.846336-07:00,9,23,Thursday,neo4j,RELOAD,Neo4j Graph Platform – The Leader in Graph Databases
33md0GbyPONeFeGeZopZPQ==,1569564976468522,2019-09-27 06:16:16.468522+00:00,2019-09-26 23:16:16.468522-07:00,9,23,Thursday,neo4j,RELOAD,Neo4j Graph Algorithms - Neo4j Graph Database Platform
33md0GbyPONeFeGeZopZPQ==,1569564971463634,2019-09-27 06:16:11.463634+00:00,2019-09-26 23:16:11.463634-07:00,9,23,Thursday,google_search,RELOAD,database of algorithms - Google Search
33md0GbyPONeFeGeZopZPQ==,1569564956462522,2019-09-27 06:15:56.462522+00:00,2019-09-26 23:15:56.462522-07:00,9,23,Thursday,google_search,RELOAD,database of algorithms - Google Search
33md0GbyPONeFeGeZopZPQ==,1569564927746989,2019-09-27 06:15:27.746989+00:00,2019-09-26 23:15:27.746989-07:00,9,23,Thursday,google_search,RELOAD,database of algorithms - Google Search
33md0GbyPONeFeGeZopZPQ==,1569564912753567,2019-09-27 06:15:12.753567+00:00,2019-09-26 23:15:12.753567-07:00,9,23,Thursday,google_search,GENERATED,respority of algoritms - Google Search
33md0GbyPONeFeGeZopZPQ==,1569564881302636,2019-09-27 06:14:41.302636+00:00,2019-09-26 23:14:41.302636-07:00,9,23,Thursday,google_search,GENERATED,respority of algoritms - Google Search
33md0GbyPONeFeGeZopZPQ==,1569564488513519,2019-09-27 06:08:08.513519+00:00,2019-09-26 23:08:08.513519-07:00,9,23,Thursday,google_search,FORM_SUBMIT,standird undergrad courses cs - Google Search
33md0GbyPONeFeGeZopZPQ==,1569564481398365,2019-09-27 06:08:01.398365+00:00,2019-09-26 23:08:01.398365-07:00,9,23,Thursday,google_search,GENERATED,standird undergrad courses - Google Search
33md0GbyPONeFeGeZopZPQ==,1569564466199170,2019-09-27 06:07:46.199170+00:00,2019-09-26 23:07:46.199170-07:00,9,23,Thursday,newtab,TYPED,New Tab
33md0GbyPONeFeGeZopZPQ==,1569564311652319,2019-09-27 06:05:11.652319+00:00,2019-09-26 23:05:11.652319-07:00,9,23,Thursday,google_search,FORM_SUBMIT,stanford courses fall 2019 - Google Search
33md0GbyPONeFeGeZopZPQ==,1569564301621126,2019-09-27 06:05:01.621126+00:00,2019-09-26 23:05:01.621126-07:00,9,23,Thursday,google_search,GENERATED,stanford courses - Google Search
33md0GbyPONeFeGeZopZPQ==,1569564291229869,2019-09-27 06:04:51.229869+00:00,2019-09-26 23:04:51.229869-07:00,9,23,Thursday,newtab,TYPED,New Tab
33md0GbyPONeFeGeZopZPQ==,1569564133207028,2019-09-27 06:02:13.207028+00:00,2019-09-26 23:02:13.207028-07:00,9,23,Thursday,google_search,GENERATED,standford cs faculty - Google Search
33md0GbyPONeFeGeZopZPQ==,1569564123742398,2019-09-27 06:02:03.742398+00:00,2019-09-26 23:02:03.742398-07:00,9,23,Thursday,newtab,TYPED,New Tab
33md0GbyPONeFeGeZopZPQ==,1569564009280246,2019-09-27 06:00:09.280246+00:00,2019-09-26 23:00:09.280246-07:00,9,23,Thursday,gradescope,RELOAD,Gradescope
33md0GbyPONeFeGeZopZPQ==,1569563966741785,2019-09-27 05:59:26.741785+00:00,2019-09-26 22:59:26.741785-07:00,9,22,Thursday,stanford,RELOAD,CS229
33md0GbyPONeFeGeZopZPQ==,1569563954757539,2019-09-27 05:59:14.757539+00:00,2019-09-26 22:59:14.757539-07:00,9,22,Thursday,stanford,RELOAD,Course Schedule Summer 2018-2019
33md0GbyPONeFeGeZopZPQ==,1569563819568518,2019-09-27 05:56:59.568518+00:00,2019-09-26 22:56:59.568518-07:00,9,22,Thursday,stanford,RELOAD,Courses | Stanford Computer Science
33md0GbyPONeFeGeZopZPQ==,1569563812134210,2019-09-27 05:56:52.134210+00:00,2019-09-26 22:56:52.134210-07:00,9,22,Thursday,google_search,RELOAD,cs stanford - Google Search
33md0GbyPONeFeGeZopZPQ==,1569563802814536,2019-09-27 05:56:42.814536+00:00,2019-09-26 22:56:42.814536-07:00,9,22,Thursday,newtab,RELOAD,New Tab
33md0GbyPONeFeGeZopZPQ==,1569563782783570,2019-09-27 05:56:22.783570+00:00,2019-09-26 22:56:22.783570-07:00,9,22,Thursday,hkbu,RELOAD,TANG Tao's Home Page
33md0GbyPONeFeGeZopZPQ==,1569563765859890,2019-09-27 05:56:05.859890+00:00,2019-09-26 22:56:05.859890-07:00,9,22,Thursday,hkbu,RELOAD,"Department of Mathematics, Hong Kong Baptist University"
33md0GbyPONeFeGeZopZPQ==,1569563577735508,2019-09-27 05:52:57.735508+00:00,2019-09-26 22:52:57.735508-07:00,9,22,Thursday,google_search,RELOAD,hong kong baptist university mathematics - Google Search
33md0GbyPONeFeGeZopZPQ==,1569563571297557,2019-09-27 05:52:51.297557+00:00,2019-09-26 22:52:51.297557-07:00,9,22,Thursday,newtab,RELOAD,New Tab
33md0GbyPONeFeGeZopZPQ==,1569563556821928,2019-09-27 05:52:36.821928+00:00,2019-09-26 22:52:36.821928-07:00,9,22,Thursday,github,RELOAD,pankajkmishra · GitHub
33md0GbyPONeFeGeZopZPQ==,1569563555764027,2019-09-27 05:52:35.764027+00:00,2019-09-26 22:52:35.764027-07:00,9,22,Thursday,mishrapk,RELOAD,Pankaj K Mishra - Home
33md0GbyPONeFeGeZopZPQ==,1569563551274315,2019-09-27 05:52:31.274315+00:00,2019-09-26 22:52:31.274315-07:00,9,22,Thursday,mishrapk,RELOAD,Pankaj K Mishra - Blog
33md0GbyPONeFeGeZopZPQ==,1569563468453014,2019-09-27 05:51:08.453014+00:00,2019-09-26 22:51:08.453014-07:00,9,22,Thursday,researchgate,RELOAD,Pankaj K Mishra | PhD | UTIG
33md0GbyPONeFeGeZopZPQ==,1569563458501163,2019-09-27 05:50:58.501163+00:00,2019-09-26 22:50:58.501163-07:00,9,22,Thursday,mishrapk,RELOAD,Pankaj K Mishra - Home
33md0GbyPONeFeGeZopZPQ==,1569563451386795,2019-09-27 05:50:51.386795+00:00,2019-09-26 22:50:51.386795-07:00,9,22,Thursday,hkbu,RELOAD,Leevan Ling
33md0GbyPONeFeGeZopZPQ==,1569563431002696,2019-09-27 05:50:31.002696+00:00,2019-09-26 22:50:31.002696-07:00,9,22,Thursday,hkbu,RELOAD,Leevan Ling
33md0GbyPONeFeGeZopZPQ==,1569563398774889,2019-09-27 05:49:58.774889+00:00,2019-09-26 22:49:58.774889-07:00,9,22,Thursday,hkbu,RELOAD,"Department of Mathematics, Hong Kong Baptist University"
33md0GbyPONeFeGeZopZPQ==,1569563394398748,2019-09-27 05:49:54.398748+00:00,2019-09-26 22:49:54.398748-07:00,9,22,Thursday,google_search,RELOAD,hong kong baptist university mathematics - Google Search
33md0GbyPONeFeGeZopZPQ==,1569563383089532,2019-09-27 05:49:43.089532+00:00,2019-09-26 22:49:43.089532-07:00,9,22,Thursday,google_search,RELOAD,hong kong bapist university - Google Search
33md0GbyPONeFeGeZopZPQ==,1569563247894618,2019-09-27 05:47:27.894618+00:00,2019-09-26 22:47:27.894618-07:00,9,22,Thursday,google_search,GENERATED,shu xiao li - Google Search
33md0GbyPONeFeGeZopZPQ==,1569563238062857,2019-09-27 05:47:18.062857+00:00,2019-09-26 22:47:18.062857-07:00,9,22,Thursday,newtab,TYPED,New Tab
33md0GbyPONeFeGeZopZPQ==,1569563218479319,2019-09-27 05:46:58.479319+00:00,2019-09-26 22:46:58.479319-07:00,9,22,Thursday,yorku,RELOAD,Nantel Bergeron's selected tals
33md0GbyPONeFeGeZopZPQ==,1569563083422823,2019-09-27 05:44:43.422823+00:00,2019-09-26 22:44:43.422823-07:00,9,22,Thursday,yorku,RELOAD,Nantel Bergeron's Home Page
33md0GbyPONeFeGeZopZPQ==,1569563077159367,2019-09-27 05:44:37.159367+00:00,2019-09-26 22:44:37.159367-07:00,9,22,Thursday,scholar.google,RELOAD,Nantel Bergeron - Google Scholar Citations
33md0GbyPONeFeGeZopZPQ==,1569562864027478,2019-09-27 05:41:04.027478+00:00,2019-09-26 22:41:04.027478-07:00,9,22,Thursday,scholar.google,RELOAD,Nantel Bergeron - Google Scholar Citations
33md0GbyPONeFeGeZopZPQ==,1569562860602411,2019-09-27 05:41:00.602411+00:00,2019-09-26 22:41:00.602411-07:00,9,22,Thursday,yorku,RELOAD,Nantel Bergeron's Home Page
33md0GbyPONeFeGeZopZPQ==,1569562850500242,2019-09-27 05:40:50.500242+00:00,2019-09-26 22:40:50.500242-07:00,9,22,Thursday,yorku,RELOAD,Nantel Bergeron's Algebra III
33md0GbyPONeFeGeZopZPQ==,1569562715375609,2019-09-27 05:38:35.375609+00:00,2019-09-26 22:38:35.375609-07:00,9,22,Thursday,google_search,GENERATED,nantel bergeron math - Google Search
33md0GbyPONeFeGeZopZPQ==,1569562701418291,2019-09-27 05:38:21.418291+00:00,2019-09-26 22:38:21.418291-07:00,9,22,Thursday,newtab,TYPED,New Tab
33md0GbyPONeFeGeZopZPQ==,1569555126075881,2019-09-27 03:32:06.075881+00:00,2019-09-26 20:32:06.075881-07:00,9,20,Thursday,stackoverflow,RELOAD,Resize image proportionally with CSS
33md0GbyPONeFeGeZopZPQ==,1569555121481174,2019-09-27 03:32:01.481174+00:00,2019-09-26 20:32:01.481174-07:00,9,20,Thursday,google_search,RELOAD,stretch image proportionally css - Google Search
33md0GbyPONeFeGeZopZPQ==,1569555097122917,2019-09-27 03:31:37.122917+00:00,2019-09-26 20:31:37.122917-07:00,9,20,Thursday,google_search,GENERATED,stretch image proportionally css - Google Search
33md0GbyPONeFeGeZopZPQ==,1569555085363793,2019-09-27 03:31:25.363793+00:00,2019-09-26 20:31:25.363793-07:00,9,20,Thursday,newtab,RELOAD,New Tab
33md0GbyPONeFeGeZopZPQ==,1569555027842352,2019-09-27 03:30:27.842352+00:00,2019-09-26 20:30:27.842352-07:00,9,20,Thursday,newtab,RELOAD,New Tab
33md0GbyPONeFeGeZopZPQ==,1569554674574747,2019-09-27 03:24:34.574747+00:00,2019-09-26 20:24:34.574747-07:00,9,20,Thursday,fanfox,TYPED,Manga Fox - Read Manga Online for Free!
33md0GbyPONeFeGeZopZPQ==,1569554596851451,2019-09-27 03:23:16.851451+00:00,2019-09-26 20:23:16.851451-07:00,9,20,Thursday,github,TYPED,Page not found · GitHub Pages
33md0GbyPONeFeGeZopZPQ==,1569554540825736,2019-09-27 03:22:20.825736+00:00,2019-09-26 20:22:20.825736-07:00,9,20,Thursday,newtab,TYPED,New Tab
33md0GbyPONeFeGeZopZPQ==,1569554535036557,2019-09-27 03:22:15.036557+00:00,2019-09-26 20:22:15.036557-07:00,9,20,Thursday,stackoverflow,RELOAD,CSS for hiding multiple columns in a table - Stack Overflow
wJoApW4mitVee+tuwzxLGw==,1569554392030020,2019-09-27 03:19:52.030020+00:00,2019-09-26 20:19:52.030020-07:00,9,20,Thursday,github,RELOAD,Page not found · GitHub Pages
wJoApW4mitVee+tuwzxLGw==,1569554277765096,2019-09-27 03:17:57.765096+00:00,2019-09-26 20:17:57.765096-07:00,9,20,Thursday,google_search,GENERATED,img src size html - Google Search
wJoApW4mitVee+tuwzxLGw==,1569554273223857,2019-09-27 03:17:53.223857+00:00,2019-09-26 20:17:53.223857-07:00,9,20,Thursday,newtab,TYPED,New Tab
wJoApW4mitVee+tuwzxLGw==,1569554236944969,2019-09-27 03:17:16.944969+00:00,2019-09-26 20:17:16.944969-07:00,9,20,Thursday,github,TYPED,Page not found · GitHub Pages
wJoApW4mitVee+tuwzxLGw==,1569554220312348,2019-09-27 03:17:00.312348+00:00,2019-09-26 20:17:00.312348-07:00,9,20,Thursday,ioschedule,TYPED,ioschedule
wJoApW4mitVee+tuwzxLGw==,1569554092777250,2019-09-27 03:14:52.777250+00:00,2019-09-26 20:14:52.777250-07:00,9,20,Thursday,google_search,FORM_SUBMIT,stretch image to full screen css - Google Search
wJoApW4mitVee+tuwzxLGw==,1569554080112035,2019-09-27 03:14:40.112035+00:00,2019-09-26 20:14:40.112035-07:00,9,20,Thursday,google_search,FORM_SUBMIT,expand image to full screen html - Google Search
wJoApW4mitVee+tuwzxLGw==,1569554044737701,2019-09-27 03:14:04.737701+00:00,2019-09-26 20:14:04.737701-07:00,9,20,Thursday,google_search,FORM_SUBMIT,expand image to full screen html - Google Search
wJoApW4mitVee+tuwzxLGw==,1569554038946721,2019-09-27 03:13:58.946721+00:00,2019-09-26 20:13:58.946721-07:00,9,20,Thursday,google_search,GENERATED,expand image to full screen - Google Search
wJoApW4mitVee+tuwzxLGw==,1569553668753652,2019-09-27 03:07:48.753652+00:00,2019-09-26 20:07:48.753652-07:00,9,20,Thursday,github,TYPED,Page not found · GitHub Pages
wJoApW4mitVee+tuwzxLGw==,1569553614342483,2019-09-27 03:06:54.342483+00:00,2019-09-26 20:06:54.342483-07:00,9,20,Thursday,google_search,GENERATED,jackie yorku - Google Search
wJoApW4mitVee+tuwzxLGw==,1569553592929137,2019-09-27 03:06:32.929137+00:00,2019-09-26 20:06:32.929137-07:00,9,20,Thursday,tartarus,TYPED,maths
wJoApW4mitVee+tuwzxLGw==,1569553554134826,2019-09-27 03:05:54.134826+00:00,2019-09-26 20:05:54.134826-07:00,9,20,Thursday,tartarus,TYPED,Tartarus
wJoApW4mitVee+tuwzxLGw==,1569553552168021,2019-09-27 03:05:52.168021+00:00,2019-09-26 20:05:52.168021-07:00,9,20,Thursday,tartarus,TYPED,Tartarus
wJoApW4mitVee+tuwzxLGw==,1569553548904128,2019-09-27 03:05:48.904128+00:00,2019-09-26 20:05:48.904128-07:00,9,20,Thursday,tartarus,TYPED,Tartarus
wJoApW4mitVee+tuwzxLGw==,1569553507538276,2019-09-27 03:05:07.538276+00:00,2019-09-26 20:05:07.538276-07:00,9,20,Thursday,tartarus,TYPED,Tartarus
wJoApW4mitVee+tuwzxLGw==,1569553398927327,2019-09-27 03:03:18.927327+00:00,2019-09-26 20:03:18.927327-07:00,9,20,Thursday,wordpress,AUTO_BOOKMARK,DataWorks – A Encyclopedia
wJoApW4mitVee+tuwzxLGw==,1569552169205609,2019-09-27 02:42:49.205609+00:00,2019-09-26 19:42:49.205609-07:00,9,19,Thursday,google_search,FORM_SUBMIT,balckgoles - Google Search
wJoApW4mitVee+tuwzxLGw==,1569552149185659,2019-09-27 02:42:29.185659+00:00,2019-09-26 19:42:29.185659-07:00,9,19,Thursday,google_search,FORM_SUBMIT,torus - Google Search
wJoApW4mitVee+tuwzxLGw==,1569552141068335,2019-09-27 02:42:21.068335+00:00,2019-09-26 19:42:21.068335-07:00,9,19,Thursday,google_search,FORM_SUBMIT,babies - Google Search
wJoApW4mitVee+tuwzxLGw==,1569552124253948,2019-09-27 02:42:04.253948+00:00,2019-09-26 19:42:04.253948-07:00,9,19,Thursday,google_search,FORM_SUBMIT,bluely - Google Search
wJoApW4mitVee+tuwzxLGw==,1569552117665160,2019-09-27 02:41:57.665160+00:00,2019-09-26 19:41:57.665160-07:00,9,19,Thursday,google_search,FORM_SUBMIT,smiley face baby - Google Search
wJoApW4mitVee+tuwzxLGw==,1569552109058344,2019-09-27 02:41:49.058344+00:00,2019-09-26 19:41:49.058344-07:00,9,19,Thursday,google_search,FORM_SUBMIT,smiley face baby - Google Search
wJoApW4mitVee+tuwzxLGw==,1569552099106368,2019-09-27 02:41:39.106368+00:00,2019-09-26 19:41:39.106368-07:00,9,19,Thursday,google_search,GENERATED,smilely face - Google Search
wJoApW4mitVee+tuwzxLGw==,1569552024912261,2019-09-27 02:40:24.912261+00:00,2019-09-26 19:40:24.912261-07:00,9,19,Thursday,google_search,GENERATED,align table left - Google Search
wJoApW4mitVee+tuwzxLGw==,1569552016991717,2019-09-27 02:40:16.991717+00:00,2019-09-26 19:40:16.991717-07:00,9,19,Thursday,newtab,TYPED,New Tab
wJoApW4mitVee+tuwzxLGw==,1569551405690294,2019-09-27 02:30:05.690294+00:00,2019-09-26 19:30:05.690294-07:00,9,19,Thursday,yorku,FORM_SUBMIT,"Lie Algebras, Madison 1987 | SpringerLink"
wJoApW4mitVee+tuwzxLGw==,1569550609119377,2019-09-27 02:16:49.119377+00:00,2019-09-26 19:16:49.119377-07:00,9,19,Thursday,google_search,GENERATED,bluewworks - Google Search
wJoApW4mitVee+tuwzxLGw==,1569550597376270,2019-09-27 02:16:37.376270+00:00,2019-09-26 19:16:37.376270-07:00,9,19,Thursday,google_search,GENERATED,bluewworks - Google Search
wJoApW4mitVee+tuwzxLGw==,1569550573865795,2019-09-27 02:16:13.865795+00:00,2019-09-26 19:16:13.865795-07:00,9,19,Thursday,google_search,GENERATED,bluewworks - Google Search
wJoApW4mitVee+tuwzxLGw==,1569550546590699,2019-09-27 02:15:46.590699+00:00,2019-09-26 19:15:46.590699-07:00,9,19,Thursday,google_search,GENERATED,bluewworks - Google Search
wJoApW4mitVee+tuwzxLGw==,1569549794331705,2019-09-27 02:03:14.331705+00:00,2019-09-26 19:03:14.331705-07:00,9,19,Thursday,newtab,TYPED,New Tab
wJoApW4mitVee+tuwzxLGw==,1569549758771199,2019-09-27 02:02:38.771199+00:00,2019-09-26 19:02:38.771199-07:00,9,19,Thursday,google_search,GENERATED,claudio lacoe - Google Search
wJoApW4mitVee+tuwzxLGw==,1569549332975125,2019-09-27 01:55:32.975125+00:00,2019-09-26 18:55:32.975125-07:00,9,18,Thursday,yorku,FORM_SUBMIT,"Lie Algebras, Madison 1987 | SpringerLink"
wJoApW4mitVee+tuwzxLGw==,1569549320390335,2019-09-27 01:55:20.390335+00:00,2019-09-26 18:55:20.390335-07:00,9,18,Thursday,yorku,FORM_SUBMIT,Catalogue Search Results | York University Libraries
wJoApW4mitVee+tuwzxLGw==,1569549306932247,2019-09-27 01:55:06.932247+00:00,2019-09-26 18:55:06.932247-07:00,9,18,Thursday,yorku,FORM_SUBMIT,Catalogue Search Results | York University Libraries
wJoApW4mitVee+tuwzxLGw==,1569549274840760,2019-09-27 01:54:34.840760+00:00,2019-09-26 18:54:34.840760-07:00,9,18,Thursday,google_search,GENERATED,ca - Google Search
wJoApW4mitVee+tuwzxLGw==,1569549267951371,2019-09-27 01:54:27.951371+00:00,2019-09-26 18:54:27.951371-07:00,9,18,Thursday,newtab,TYPED,New Tab
wJoApW4mitVee+tuwzxLGw==,1569549263195497,2019-09-27 01:54:23.195497+00:00,2019-09-26 18:54:23.195497-07:00,9,18,Thursday,yorku,FORM_SUBMIT,Passport York Login
wJoApW4mitVee+tuwzxLGw==,1569549036028628,2019-09-27 01:50:36.028628+00:00,2019-09-26 18:50:36.028628-07:00,9,18,Thursday,visualstudio,FORM_SUBMIT,Extensions for Visual Studio family of products | Visual Studio Marketplace
wJoApW4mitVee+tuwzxLGw==,1569548974476964,2019-09-27 01:49:34.476964+00:00,2019-09-26 18:49:34.476964-07:00,9,18,Thursday,google_search,GENERATED,wordpress host unlinited static files - Google Search
wJoApW4mitVee+tuwzxLGw==,1569548960451792,2019-09-27 01:49:20.451792+00:00,2019-09-26 18:49:20.451792-07:00,9,18,Thursday,newtab,TYPED,New Tab
wJoApW4mitVee+tuwzxLGw==,1569548809465450,2019-09-27 01:46:49.465450+00:00,2019-09-26 18:46:49.465450-07:00,9,18,Thursday,wordpress,AUTO_BOOKMARK,DataWorks – A Encyclopedia
33md0GbyPONeFeGeZopZPQ==,1569548464236748,2019-09-27 01:41:04.236748+00:00,2019-09-26 18:41:04.236748-07:00,9,18,Thursday,google_search,RELOAD,hide columns in html table - Google Search
33md0GbyPONeFeGeZopZPQ==,1569548451419832,2019-09-27 01:40:51.419832+00:00,2019-09-26 18:40:51.419832-07:00,9,18,Thursday,newtab,RELOAD,New Tab
33md0GbyPONeFeGeZopZPQ==,1569548420768143,2019-09-27 01:40:20.768143+00:00,2019-09-26 18:40:20.768143-07:00,9,18,Thursday,w3schools,RELOAD,How To Create a Two Column Layout
33md0GbyPONeFeGeZopZPQ==,1569548415565710,2019-09-27 01:40:15.565710+00:00,2019-09-26 18:40:15.565710-07:00,9,18,Thursday,google_search,RELOAD,xode columns in html - Google Search
33md0GbyPONeFeGeZopZPQ==,1569548112818126,2019-09-27 01:35:12.818126+00:00,2019-09-26 18:35:12.818126-07:00,9,18,Thursday,w3schools,RELOAD,6
33md0GbyPONeFeGeZopZPQ==,1569548061394264,2019-09-27 01:34:21.394264+00:00,2019-09-26 18:34:21.394264-07:00,9,18,Thursday,w3schools,RELOAD,6
33md0GbyPONeFeGeZopZPQ==,1569548056952327,2019-09-27 01:34:16.952327+00:00,2019-09-26 18:34:16.952327-07:00,9,18,Thursday,w3schools,RELOAD,HTML col tag
33md0GbyPONeFeGeZopZPQ==,1569548054197995,2019-09-27 01:34:14.197995+00:00,2019-09-26 18:34:14.197995-07:00,9,18,Thursday,google_search,RELOAD,col element - Google Search
33md0GbyPONeFeGeZopZPQ==,1569548044843443,2019-09-27 01:34:04.843443+00:00,2019-09-26 18:34:04.843443-07:00,9,18,Thursday,newtab,RELOAD,New Tab
33md0GbyPONeFeGeZopZPQ==,1569548010182525,2019-09-27 01:33:30.182525+00:00,2019-09-26 18:33:30.182525-07:00,9,18,Thursday,google_search,GENERATED,code columns directly - Google Search
33md0GbyPONeFeGeZopZPQ==,1569548000897859,2019-09-27 01:33:20.897859+00:00,2019-09-26 18:33:20.897859-07:00,9,18,Thursday,newtab,TYPED,New Tab
33md0GbyPONeFeGeZopZPQ==,1569547650787806,2019-09-27 01:27:30.787806+00:00,2019-09-26 18:27:30.787806-07:00,9,18,Thursday,github,RELOAD,learning-area
33md0GbyPONeFeGeZopZPQ==,1569547647919206,2019-09-27 01:27:27.919206+00:00,2019-09-26 18:27:27.919206-07:00,9,18,Thursday,github,RELOAD,mdn
33md0GbyPONeFeGeZopZPQ==,1569547645161756,2019-09-27 01:27:25.161756+00:00,2019-09-26 18:27:25.161756-07:00,9,18,Thursday,github,RELOAD,mdn
33md0GbyPONeFeGeZopZPQ==,1569547625391202,2019-09-27 01:27:05.391202+00:00,2019-09-26 18:27:05.391202-07:00,9,18,Thursday,github,RELOAD,learning-area
33md0GbyPONeFeGeZopZPQ==,1569547547150713,2019-09-27 01:25:47.150713+00:00,2019-09-26 18:25:47.150713-07:00,9,18,Thursday,mozilla,RELOAD,HTML table basics - Learn web development | MDN
33md0GbyPONeFeGeZopZPQ==,1569547543516309,2019-09-27 01:25:43.516309+00:00,2019-09-26 18:25:43.516309-07:00,9,18,Thursday,google_search,RELOAD,html tables notes - Google Search
33md0GbyPONeFeGeZopZPQ==,1569547491852463,2019-09-27 01:24:51.852463+00:00,2019-09-26 18:24:51.852463-07:00,9,18,Thursday,google_search,GENERATED,html tables notes - Google Search
33md0GbyPONeFeGeZopZPQ==,1569547479320981,2019-09-27 01:24:39.320981+00:00,2019-09-26 18:24:39.320981-07:00,9,18,Thursday,google_search,GENERATED,html tables notes - Google Search
33md0GbyPONeFeGeZopZPQ==,1569547470801024,2019-09-27 01:24:30.801024+00:00,2019-09-26 18:24:30.801024-07:00,9,18,Thursday,newtab,TYPED,New Tab
33md0GbyPONeFeGeZopZPQ==,1569546666519824,2019-09-27 01:11:06.519824+00:00,2019-09-26 18:11:06.519824-07:00,9,18,Thursday,github,RELOAD,Groups-IA-
33md0GbyPONeFeGeZopZPQ==,1569546565230525,2019-09-27 01:09:25.230525+00:00,2019-09-26 18:09:25.230525-07:00,9,18,Thursday,google_search,GENERATED,oxfird cs dept - Google Search
33md0GbyPONeFeGeZopZPQ==,1569546467978739,2019-09-27 01:07:47.978739+00:00,2019-09-26 18:07:47.978739-07:00,9,18,Thursday,google_search,GENERATED,oxfird cs dept - Google Search
33md0GbyPONeFeGeZopZPQ==,1569546459259901,2019-09-27 01:07:39.259901+00:00,2019-09-26 18:07:39.259901-07:00,9,18,Thursday,newtab,TYPED,New Tab
33md0GbyPONeFeGeZopZPQ==,1569546386651119,2019-09-27 01:06:26.651119+00:00,2019-09-26 18:06:26.651119-07:00,9,18,Thursday,newtab,RELOAD,New Tab
33md0GbyPONeFeGeZopZPQ==,1569546344394569,2019-09-27 01:05:44.394569+00:00,2019-09-26 18:05:44.394569-07:00,9,18,Thursday,brown,RELOAD,ICERM - Optimization Methods in Computer Vision and Image Processing
33md0GbyPONeFeGeZopZPQ==,1569546339623779,2019-09-27 01:05:39.623779+00:00,2019-09-26 18:05:39.623779-07:00,9,18,Thursday,uwaterloo,RELOAD,Yuri Boykov - Home Page
33md0GbyPONeFeGeZopZPQ==,1569546321148051,2019-09-27 01:05:21.148051+00:00,2019-09-26 18:05:21.148051-07:00,9,18,Thursday,uwaterloo,RELOAD,Our People - Faculty | Cheriton School of Computer Science | University of Waterloo
33md0GbyPONeFeGeZopZPQ==,1569546085523754,2019-09-27 01:01:25.523754+00:00,2019-09-26 18:01:25.523754-07:00,9,18,Thursday,google_search,RELOAD,waterloo cs department - Google Search
33md0GbyPONeFeGeZopZPQ==,1569546065528156,2019-09-27 01:01:05.528156+00:00,2019-09-26 18:01:05.528156-07:00,9,18,Thursday,newtab,RELOAD,New Tab
33md0GbyPONeFeGeZopZPQ==,1569545971750597,2019-09-27 00:59:31.750597+00:00,2019-09-26 17:59:31.750597-07:00,9,17,Thursday,fanfox,RELOAD,Home - MangaFox Mobile
33md0GbyPONeFeGeZopZPQ==,1569545860248172,2019-09-27 00:57:40.248172+00:00,2019-09-26 17:57:40.248172-07:00,9,17,Thursday,drorbn,RELOAD,Dror Bar-Natan
33md0GbyPONeFeGeZopZPQ==,1569545836331483,2019-09-27 00:57:16.331483+00:00,2019-09-26 17:57:16.331483-07:00,9,17,Thursday,drorbn,RELOAD,Dror Bar-Natan
33md0GbyPONeFeGeZopZPQ==,1569545805191730,2019-09-27 00:56:45.191730+00:00,2019-09-26 17:56:45.191730-07:00,9,17,Thursday,drorbn,RELOAD,Dror Bar-Natan
33md0GbyPONeFeGeZopZPQ==,1569545707379523,2019-09-27 00:55:07.379523+00:00,2019-09-26 17:55:07.379523-07:00,9,17,Thursday,drorbn,RELOAD,Dror Bar-Natan
33md0GbyPONeFeGeZopZPQ==,1569545705289007,2019-09-27 00:55:05.289007+00:00,2019-09-26 17:55:05.289007-07:00,9,17,Thursday,toronto,RELOAD,Dror Bar-Natan's World-Wide-Web Home Page
33md0GbyPONeFeGeZopZPQ==,1569545702291283,2019-09-27 00:55:02.291283+00:00,2019-09-26 17:55:02.291283-07:00,9,17,Thursday,drorbn,RELOAD,Drorbn
33md0GbyPONeFeGeZopZPQ==,1569545700235073,2019-09-27 00:55:00.235073+00:00,2019-09-26 17:55:00.235073-07:00,9,17,Thursday,newtab,RELOAD,New Tab
wJoApW4mitVee+tuwzxLGw==,1569534478882726,2019-09-26 21:47:58.882726+00:00,2019-09-26 14:47:58.882726-07:00,9,14,Thursday,newtab,TYPED,New Tab
wJoApW4mitVee+tuwzxLGw==,1569534003174803,2019-09-26 21:40:03.174803+00:00,2019-09-26 14:40:03.174803-07:00,9,14,Thursday,github,TYPED,Page not found · GitHub Pages
wJoApW4mitVee+tuwzxLGw==,1569533709492870,2019-09-26 21:35:09.492870+00:00,2019-09-26 14:35:09.492870-07:00,9,14,Thursday,azure,FORM_SUBMIT,Signup
wJoApW4mitVee+tuwzxLGw==,1569533708537592,2019-09-26 21:35:08.537592+00:00,2019-09-26 14:35:08.537592-07:00,9,14,Thursday,visualstudio,FORM_SUBMIT,Working
wJoApW4mitVee+tuwzxLGw==,1569533701782302,2019-09-26 21:35:01.782302+00:00,2019-09-26 14:35:01.782302-07:00,9,14,Thursday,live,FORM_SUBMIT,Sign in to your Microsoft account
wJoApW4mitVee+tuwzxLGw==,1569533683144123,2019-09-26 21:34:43.144123+00:00,2019-09-26 14:34:43.144123-07:00,9,14,Thursday,github,FORM_SUBMIT,Confirm password
wJoApW4mitVee+tuwzxLGw==,1569532795087904,2019-09-26 21:19:55.087904+00:00,2019-09-26 14:19:55.087904-07:00,9,14,Thursday,newtab,TYPED,New Tab
wJoApW4mitVee+tuwzxLGw==,1569532793964783,2019-09-26 21:19:53.964783+00:00,2019-09-26 14:19:53.964783-07:00,9,14,Thursday,infinityfree,AUTO_BOOKMARK,Free and Unlimited Web Hosting with PHP and MySQL - InfinityFree
wJoApW4mitVee+tuwzxLGw==,1569532355364219,2019-09-26 21:12:35.364219+00:00,2019-09-26 14:12:35.364219-07:00,9,14,Thursday,newtab,AUTO_TOPLEVEL,New Tab
wJoApW4mitVee+tuwzxLGw==,1569532341974811,2019-09-26 21:12:21.974811+00:00,2019-09-26 14:12:21.974811-07:00,9,14,Thursday,drive.google,RELOAD,pdf - Google Drive
wJoApW4mitVee+tuwzxLGw==,1569532331932082,2019-09-26 21:12:11.932082+00:00,2019-09-26 14:12:11.932082-07:00,9,14,Thursday,google_search,GENERATED,xplorer=MAGpudAMmBvo4g3Qas1YkPDFnp0OF_cq - Google Search
